 [
  {
  "post_id": 1,
  "likes": 0,
  "authoremail": "trymail22@yandex.ua",
  "comments": [
               {
               "commentatorName": "Erick",
               "text": "red..",
               "comment_date": "2015-01-01 17:35:40 GMT",
               "comment_id": 1
               },
               {
               "commentatorName": "Jammie",
               "text": "tasty",
               "comment_date": "2015-01-01 07:35:40 GMT",
               "comment_id": 2
               }
               ],
  "photoURL": "http://www.herbalextractsplus.com/images/herbs/tomato-isp.jpg",
  "photoName": "tomato",
  "location": {
  "latitude": 51.586723,
  "longitude": -0.34976
  },
  "photo_date": "2014-03-04 06:35:40 GMT"
  },
  {
  "post_id": 2,
  "likes": 3,
  "authoremail": "kartman@yandex.ua",
  "comments": [
               {
               "commentatorName": "Ronald",
               "text": "what a mess!!!",
               "comment_date": "2013-03-27 17:35:40 GMT",
               "comment_id": 3
               },
               {
               "commentatorName": "Jammie",
               "text": "o my god..",
               "comment_date": "2013-04-27 07:25:40 GMT",
               "comment_id": 4
               },
               {
               "commentatorName": "Tirion",
               "text": "Hope you'll take this mask to school",
               "comment_date": "2013-04-27 09:25:40 GMT",
               "comment_id": 5
               }
               ],
  "photoURL": "http://cs532300v4.vk.me/u1722475/video/l_c5183fae.jpg",
  "photoName": "kartmanFace",
  "location": {
  "latitude": 51.486723,
  "longitude": -0.354976
  },
  "photo_date": "2013-02-27 06:35:40 GMT"
  },
  {
  "post_id": 3,
  "likes": 0,
  "authoremail": "tirion@lannister.uk",
  "comments": [],
  "photoURL": "http://th06.deviantart.net/fs71/PRE/f/2012/234/b/5/tyrion_lannister_by_rickardha-d5c1j75.jpg",
  "photoName": "myPledge",
  "location": {
  "latitude": 51.496723,
  "longitude": -0.65976
  },
  "photo_date": "2013-03-29 06:35:40 GMT"
  },
  {
  "post_id": 4,
  "likes": 2,
  "authoremail": "jamie@lannister.uk",
  "comments": [
               {
               "commentatorName": "Ronald",
               "text": "hope,you'll come back soon",
               "comment_date": "2014-06-11 09:25:40 GMT",
               "comment_id": 6
               },
               {
               "commentatorName": "Erick",
               "text": "not a good day for Lannisters",
               "comment_date": "2014-08-11 09:25:40 GMT",
               "comment_id": 7
               }
               ],
  "photoURL": "http://oinkandjibber.com/wp-content/uploads/2013/04/Jaime-Lannister-Number-One-OJ-620x413.jpg",
  "photoName": "solitaryConfinement",
  "location": {
  "latitude": 52.186723,
  "longitude": -0.3976
  },
  "photo_date": "2014-06-11 06:35:40 GMT"
  },
  {
  "post_id": 5,
  "likes": 0,
  "authoremail": "trymail22@yandex.ua",
  "comments": [
               {
               "commentatorName": "Erick",
               "text": "red..",
               "comment_date": "2015-01-01 17:35:40 GMT",
               "comment_id": 1
               },
               {
               "commentatorName": "Jammie",
               "text": "tasty",
               "comment_date": "2015-01-01 07:35:40 GMT",
               "comment_id": 2
               }
               ],
  "photoURL": "http://img0.liveinternet.ru/images/attach/c/4/78/776/78776850_2005448_lime_2.jpg",
  "photoName": "lime",
  "location": {
  "latitude": 51.596723,
  "longitude": -0.33976
  },
  "photo_date": "2014-06-15 06:35:40 GMT"
  },
  {
  "post_id": 6,
  "likes": 0,
  "authoremail": "trymail22@yandex.ua",
  "comments": [],
  "photoURL": "http://i.telegraph.co.uk/multimedia/archive/02544/USS-Freedom_2544812b.jpg",
  "photoName": "warship",
  "location": {
  "latitude": 51.096723,
  "longitude": -0.32976
  },
  "photo_date": "2014-06-16 06:35:40 GMT"
  },
  {
  "post_id": 7,
  "likes": 0,
  "authoremail": "trymail22@yandex.ua",
  "comments": [],
  "photoURL": "http://upload.wikimedia.org/wikipedia/commons/a/af/WhiteHouseSouthFacade.JPG",
  "photoName": "whitehouse",
  "location": {
  "latitude": 51.196723,
  "longitude": -0.32976
  },
  "photo_date": "2014-06-17 06:35:40 GMT"
  },
  {
  "post_id": 8,
  "likes": 0,
  "authoremail": "trymail22@yandex.ua",
  "comments": [],
  "photoURL": "http://upload.wikimedia.org/wikipedia/commons/thumb/a/a5/Black_Converse_sneakers.JPG/1600px-Black_Converse_sneakers.JPG",
  "photoName": "sneakers1",
  "location": {
  "latitude": 51.396723,
  "longitude": -0.32976
  },
  "photo_date": "2014-06-17 06:39:40 GMT"
  },
  {
  "post_id": 9,
  "likes": 0,
  "authoremail": "trymail22@yandex.ua",
  "comments": [],
  "photoURL": "http://www.hdwallpapers.in/thumbs/enchanted_forest-t1.jpg",
  "photoName": "forest",
  "location": {
  "latitude": 51.196723,
  "longitude": -0.32979
  },
  "photo_date": "2014-06-17 07:39:40 GMT"
  },
  {
  "post_id": 10,
  "likes": 14,
  "authoremail": "trymail22@yandex.ua",
  "comments": [],
  "photoURL": "http://mobhappy.com/blog1/wp-content/uploads/2007/06/iphone.jpg",
  "photoName": "iphone",
  "location": {
  "latitude": 48.363093,
  "longitude": 35.0457
  },
  "photo_date": "2014-06-17 09:39:40 GMT"
  },
  {
  "post_id": 11,
  "likes": 20,
  "authoremail": "trymail22@yandex.ua",
  "comments": [],
  "photoURL": "http://dps.alaska.gov/PIO/releases/resources/logos/VPSO%20Badge.jpg",
  "photoName": "badge",
  "location": {
  "latitude": 48.470311,
  "longitude": 35.047674
  },
  "photo_date": "2014-06-17 12:39:40 GMT"
  },
  {
  "post_id": 12,
  "likes": 12,
  "authoremail": "trymail22@yandex.ua",
  "comments": [],
  "photoURL": "http://www.thegef.org/gef/sites/thegef.org/files/gallery/Brick%20making%20DYK.jpg",
  "photoName": "brick",
  "location": {
  "latitude": 48.480311,
  "longitude": 35.147674
  },
  "photo_date": "2014-06-19 09:39:40 GMT"
  },
  

  
  {
  "post_id": 13,
  "likes": 16,
  "authoremail": "trymail22@yandex.ua",
  "comments": [],
  "photoURL": "http://coffee-card.ru/wp-content/uploads/2013/06/irish-coffee.jpg.jpg",
  "photoName": "a cup of coffee",
  "location": {
  "latitude": 48.410311,
  "longitude": 35.249674
  },
  "photo_date": "2014-06-27 13:30:40 GMT"
  }
  ]